[
  {
    "name": "Ahilej",
    "objectType": "GYM",
    "services": "Ova teretana nudi usluge grupnih i personalnih treninga",
    "objectStatus": "WORKING",
    "location": {
      "latitude": 15.42,
      "longtitude": 16.23,
      "adress": {
        "street": "Laze Kostica",
        "sNum": 77,
        "city": "Kovilj",
        "postCode": 21243
      },
      "deleted": false
    },
    "imageRelLocation": "/static/ahilej.png",
    "avgGrade": 3.5,
    "workingHours": "08:00-22:00",
    "deleted": false
  },
  {
    "name": "Mega Gym",
    "objectType": "GYM",
    "services": "Ovaj objekat vam nudi vrhunske uslove za trening na najnovijim spravama.",
    "location": {
      "latitude": 25.15,
      "longtitude": 26.532,
      "adress": {
        "street": "Temerinska",
        "sNum": 52,
        "city": "Novi Sad",
        "postCode": 21100
      },
      "deleted": false
    },
    "imageRelLocation": "/static/megagym.png",
    "avgGrade": 0.0,
    "workingHours": "08:00-22:00",
    "deleted": false
  },
  {
    "name": "Flex",
    "objectType": "POOL",
    "services": "Ovaj objekat je na odlicnoj lokaciji",
    "location": {
      "latitude": 15.52,
      "longtitude": 29.42,
      "adress": {
        "street": "Laze Teleckog",
        "sNum": 52,
        "city": "Novi Sad",
        "postCode": 21000
      },
      "deleted": false
    },
    "imageRelLocation": "/static/flex.png",
    "avgGrade": 0.0,
    "workingHours": "08:00-22:00",
    "deleted": false
  },
  {
    "name": "Classic",
    "objectType": "SPORTCENTRE",
    "services": "Ovaj objekat je dobro opremljen",
    "location": {
      "latitude": 15.24,
      "longtitude": 15.12,
      "adress": {
        "street": "Dimitrija Avramovica",
        "sNum": 1,
        "city": "Novi Sad",
        "postCode": 21000
      },
      "deleted": false
    },
    "imageRelLocation": "/static/ahilej.png",
    "avgGrade": 0.0,
    "workingHours": "08:00-22:00",
    "deleted": true
  }
]